{"data":{"stations":[{"address":"RUE DE LA CHEVALERIE, VILLENEUVE D'ASCQ","capacity":0,"lat":50.63608,"lon":3.130853,"name":"FLERS CHATEAU","station_id":"e5decefb7f404a94fafd43a439835a1c6555f661"},{"address":"RUE CORNEILLE, VILLENEUVE D'ASCQ","capacity":0,"lat":50.623795,"lon":3.144815,"name":"RUE CORNEILLE","station_id":"5a3d9b68042a89cfe8ad1b9d2aa31eae8204f111"},{"address":"40 BOULEVARD DE METZ, LILLE","capacity":0,"lat":50.619312,"lon":3.041299,"name":"BOULEVARD DE METZ","station_id":"e2005ba0c10d874e7c722de93157d6adb92f57bc"},{"address":"32, RUE DE LA COMMUNAUTÉ URBAINE, ROUBAIX","capacity":12,"lat":50.6941,"lon":3.172165,"name":"LES GOBELINS","station_id":"807e07d3f1e4fce53a1f1d7a458345896dc814ce"},{"address":"RUE DE TOURCOING (SUR LA PARKING GRDF), ROUBAIX","capacity":16,"lat":50.702026,"lon":3.172654,"name":"RUE DE TOURCOING","station_id":"1c542a0f2765e2bf6e198dc7508aa0a651d4cc7f"},{"address":"FACE AU 38, AVENUE RHIN ET DANUBE, MONS EN BAROEUL","capacity":3,"lat":50.64057,"lon":3.115571,"name":"LE POLYEDRE","station_id":"b0791523793fb246d0094a91ed77dbcd9ef7d2cc"},{"address":"RUE ST ELOI, LILLE HELLEMMES","capacity":0,"lat":50.632393,"lon":3.110669,"name":"JULES GUESDE","station_id":"3a4d235ba0c3d7a46784090519e9a80384cba3ca"},{"address":"ROND POINT DE L'EUROPE, ROUBAIX","capacity":0,"lat":50.689762,"lon":3.177179,"name":"MOTTE BOSSUT","station_id":"00ef3b531351fe1f0d46305504b58c89ae25aef1"},{"address":"186, AVENUE JULIEN LAGACHE, ROUBAIX","capacity":0,"lat":50.684593,"lon":3.200799,"name":"TROIS PONTS","station_id":"a7eaf198d9bcdb221cbb8ac3411452e8f4411ddf"},{"address":"4, RUE FERDINAND BUISSON, HELLEMMES","capacity":0,"lat":50.626846,"lon":3.115101,"name":"SQUARE CHARLES DE GAULLE","station_id":"f4ab70778a3b8241b9a813ee27764ac3c9dbdbec"},{"address":"16 RUE DU GÉNÉRAL LECLERC, VILLENEUVE D'ASCQ","capacity":0,"lat":50.63708,"lon":3.127964,"name":"FLERS MAIRIE","station_id":"d2a10ba5de68b5a6ce15de6641bd1c490b797463"},{"address":"33 AVENUE DU PEUPLE BELGE, LILLE","capacity":19,"lat":50.644695,"lon":3.060867,"name":"HALLE AUX SUCRES","station_id":"504deb028297b81a3965a8fa4df959acc99530a9"},{"address":"3 PLACE RICHEBE, LILLE","capacity":32,"lat":50.632366,"lon":3.062313,"name":"PLACE RICHEBE","station_id":"ef84a05a565deb315228b079839095182c045f1f"},{"address":"AVENUE DES NATIONS UNIES, ROUBAIX","capacity":0,"lat":50.696327,"lon":3.16713,"name":"BLANCHEMAILLE","station_id":"f9f6aa55e61dc339cbe229a71e11d7b219d8f05f"},{"address":"18 RUE DE TURENNE, LILLE","capacity":26,"lat":50.63022,"lon":3.035681,"name":"PORT DE LILLE","station_id":"6a1204632d571db747359d5271f2e21958074bd2"},{"address":"FACE AU 8 RUE ANATOLE FRANCE, LILLE","capacity":25,"lat":50.637486,"lon":3.065902,"name":"OPERA","station_id":"301edb33dc7276e7346e6cab110788590396bda1"},{"address":"39 BOULEVARD VAUBAN, LILLE","capacity":18,"lat":50.636093,"lon":3.050447,"name":"JARDIN VAUBAN","station_id":"e174aabbba315984faf864d8ee1dcb5a32b04480"},{"address":"24 PLACE MARECHAL LECLERC, LILLE","capacity":18,"lat":50.62899,"lon":3.043307,"name":"LECLERC","station_id":"256e3162a750634ac072e7f14a5b0149693581de"},{"address":"40 RUE ROYALE, LILLE","capacity":24,"lat":50.64031,"lon":3.05774,"name":"RUE ROYALE","station_id":"18b269166d31afbff1eaa73ca676067639cdbec7"},{"address":"18 RUE DE TOUL, LILLE","capacity":36,"lat":50.63393,"lon":3.044986,"name":"RUE DE TOUL","station_id":"278aa9df0906af6bc3cd29b5d3c3d9dd2e397ee8"},{"address":"15 PLACE PHILLIPPE LEBON, LILLE","capacity":18,"lat":50.62789,"lon":3.06209,"name":"PLACE PHILIPPE LEBON","station_id":"789d1545184e14b263e0ccc50dbdf3c4b1bad8e0"},{"address":"PLACE GILLSON, LILLE","capacity":30,"lat":50.640385,"lon":3.062053,"name":"N.D. DE LA TREILLE","station_id":"985b9680072408444b6e05524e66ad6c833206fe"},{"address":"FACE AU 37 RUE DE WAZEMMES, LILLE","capacity":22,"lat":50.62276,"lon":3.063799,"name":"PLACE COLETTE BESSON","station_id":"fe02d86554b53e4c5a53a9de89e3454d8887f32b"},{"address":"3 PLACE JACQUES FEBVRIER, LILLE","capacity":24,"lat":50.617847,"lon":3.061758,"name":"PORTE D'ARRAS","station_id":"109068ede961983697d353e26d9f598979bf4525"},{"address":"2 - 10 RUE DES TANNEURS, LILLE","capacity":36,"lat":50.635014,"lon":3.064802,"name":"TANNEURS","station_id":"e0676f038aea52b64945ef7be8b52c74ae89ba6f"},{"address":"123 RUE PIERRE LEGRAND, LILLE","capacity":24,"lat":50.632996,"lon":3.089651,"name":"FIVES","station_id":"08f6a4b289a4f581eca23cc1ba45d022c93e3c55"},{"address":"122 AVENUE DE DUNKERQUE, LILLE","capacity":22,"lat":50.634045,"lon":3.030778,"name":"BOIS BLANCS","station_id":"9cb7765400f9e22cecf163cef850f85e8ada4f52"},{"address":"40 RUE SAINT SEBASTIEN, LILLE","capacity":20,"lat":50.647236,"lon":3.059376,"name":"ST SEBASTIEN","station_id":"81cdd1ead280be51a8e0868793eb13118621056f"},{"address":"RUE DU PROFESSEUR LANGEVIN, LILLE","capacity":30,"lat":50.61989,"lon":3.084357,"name":"PETIT MAROC","station_id":"19af768c05dacf724aaa536881a519143efa6589"},{"address":"237 AVENUE DE DUNKERQUE, LILLE","capacity":18,"lat":50.637302,"lon":3.024314,"name":"CANTELEU","station_id":"83c098cf9baad4530d088d4931de5fc7868744a6"},{"address":"3 PLACE SEBASTOPOL, LILLE","capacity":24,"lat":50.629044,"lon":3.058288,"name":"THEATRE SEBASTOPOL","station_id":"3f443706e549c832710c84005d00723d5a476544"},{"address":"AVENUE DE BRETAGNE, LILLE","capacity":24,"lat":50.63378,"lon":3.02059,"name":"EURATECHNOLOGIES","station_id":"0d74a0bf768fb22390816884b669241c6fe19b90"},{"address":"1 RUE DU DIEU DE MARCQ, LILLE","capacity":20,"lat":50.64569,"lon":3.0858226,"name":"LOUVIERE","station_id":"f68d283012c2dc704b3fb8fcb1557baddfe3abde"},{"address":"35 RUE EDOUARD DELESALLE, LILLE","capacity":18,"lat":50.63237,"lon":3.066273,"name":"DELESALLE MEDIATHEQUE","station_id":"6f55bf2493bbf51f0490ee50987490d05135c4e6"},{"address":"68 RUE ROGER SALENGRO, LILLE HELLEMMES","capacity":12,"lat":50.62903,"lon":3.10295,"name":"ROGER SALENGRO","station_id":"6c30940f562f14c405ce839e945c87ec4419c203"},{"address":"390, AVENUE DE DUNKERQUE, LAMBERSART","capacity":18,"lat":50.640957,"lon":3.018803,"name":"LOMME-LAMBERSART","station_id":"dd365e49d8813d599b1756868a833ba20017efa4"},{"address":"85 RUE DU LONG POT, LILLE","capacity":18,"lat":50.628918,"lon":3.088147,"name":"STADE BALLET","station_id":"723289fe50c959f7e63d75b17870762aa8eaddd4"},{"address":"95 RUE DE LANNOY, LILLE","capacity":25,"lat":50.63417,"lon":3.095958,"name":"SQUARE DES MERES","station_id":"a4c838ce99c51e427d5abf18dc92b5d0fe2a0b80"},{"address":"916-920 AV DE LA RÉPUBLIQUE, MARCQ EN BAROEUL","capacity":18,"lat":50.6618,"lon":3.096235,"name":"CLEMENCEAU HIPPODROME","station_id":"dae4b573b2e11dc4c22186b9e004101d1c7c7c2b"},{"address":"318, RUE ROGER SALENGRO, HELLEMMES","capacity":12,"lat":50.62486,"lon":3.116677,"name":"HELLEMMES CIMETIERE","station_id":"fff3776bbd85032f7c57c71570fdf09e805f7370"},{"address":"ANGLE DE LA RUE GAMBETTA, LA MADELEINE","capacity":24,"lat":50.6549,"lon":3.068756,"name":"PLACE DU MARCHE","station_id":"922427985a6d886aa735ca8181a0c6d8b62f6246"},{"address":"RUE VERMEER, VILLENEUVE D'ASCQ","capacity":25,"lat":50.619602,"lon":3.13197,"name":"V.ASCQ HOTEL DE VILLE","station_id":"2bf443c9ebae77d9ed6efd45ebd7897d750efc1b"},{"address":"85, RUE DU GÉNÉRAL DE GAULLE, LA MADELEINE","capacity":18,"lat":50.651497,"lon":3.072316,"name":"DE GAULLE","station_id":"d951c5801d573f20889b8b8ebeebb62f68a764be"},{"address":"108 RUE DU GENERAL DE GAULLE, MONS EN BAROEUL","capacity":20,"lat":50.645267,"lon":3.100516,"name":"GENERAL DE GAULLE","station_id":"109455a36378e3a5b0ad83d2279212d6ff6e6da0"},{"address":"FACE AU 53 RUE DE FIVES, VILLENEUVE D'ASCQ","capacity":20,"lat":50.631298,"lon":3.126914,"name":"LADRIERE","station_id":"555d71247483c724a6c577e9dbbeb91525825b37"},{"address":"298-300 AVENUE DE LATTRE DE TASSIGNY, MARCQ EN BAROEUL","capacity":16,"lat":50.666033,"lon":3.087591,"name":"PISCINE DE MARCQ","station_id":"92de32733cd56ffd713707eab9657895c9c0a955"},{"address":"11 RUE BONTE POLLET, LILLE","capacity":16,"lat":50.62487,"lon":3.034234,"name":"RUE BONTE-POLLET","station_id":"fdd36680ce4f06b3c7eeb59f0c7b76d40def9fbe"},{"address":"SUR LE PARVIS DE LA MAIRIE, RONCHIN","capacity":24,"lat":50.60548,"lon":3.077622,"name":"RONCHIN MAIRIE","station_id":"e21109f21145b4c7be80b5763ec0dfb01bde623f"},{"address":"12, RUE DE NORMANDIE, MONS EN BAROEUL","capacity":20,"lat":50.643883,"lon":3.118579,"name":"FORT DE MONS","station_id":"b28430c484e21d2d35cb70109272e480fe35c063"},{"address":"RUE TRÉMIÈRES ANGLE RUE DES FUSILLÉS, VILLENEUVE D'ASCQ","capacity":20,"lat":50.6206,"lon":3.138207,"name":"TREMIERE","station_id":"a869cff6a7ea9e04290d91f0ec038cf7528fd9c6"},{"address":"FACE AU 2 CHEMIN ROUGE, FACHES-THUMESNIL","capacity":16,"lat":50.610582,"lon":3.065103,"name":"CHEMIN ROUGE","station_id":"0ec6953e4d357161166b03466757aa336596e51d"},{"address":"FACE AU 233 BOULEVARD DE VALMY, VILLENEUVE D'ASCQ","capacity":28,"lat":50.61915,"lon":3.126501,"name":"BOULEVARD DE VALMY","station_id":"05ff65948c53f101bdc0775580af3518fa9046ee"},{"address":"FACE AU 780 AVENUE JEAN JAURES, RONCHIN","capacity":17,"lat":50.609592,"lon":3.075483,"name":"JEAN JAURES","station_id":"e3c7a5eb577a00b18ec5f824ee32b287a0995a2d"},{"address":"FACE AU 4 RUE GAMBETTA, SAINT ANDRE LEZ LILLE","capacity":15,"lat":50.655098,"lon":3.051201,"name":"BAILLY","station_id":"457a4a16f8c753fe5a51db020491733159dcf467"},{"address":"40, RUE DE LA VAGUE, VILLENEUVE D'ASCQ","capacity":30,"lat":50.615868,"lon":3.126089,"name":"HERON PARC","station_id":"c8117f6ec1ca79c6731c9c35b9acc1a81e19bf0a"},{"address":"280-248 RUE DU PONT à FOURCHON, LILLE","capacity":14,"lat":50.630855,"lon":3.0226,"name":"RIVES DE LA HAUTE DEULE","station_id":"fc1653c9ff7062af87f1863f79e63e502dac3d74"},{"address":"Rue Chaude Rivière, LILLE","capacity":15,"lat":50.634417,"lon":3.0822274,"name":"CHAUDE RIVIÈRE","station_id":"7088cd2ce87509cd8df981edbd9b88a088644506"},{"address":"FACE AU 1 BIS RUE DE LA STATION, VILLENEUVE D'ASCQ","capacity":24,"lat":50.6258,"lon":3.14862,"name":"ANNAPPES REPUBLIQUE","station_id":"f71c6e9781b180d5fa36b18a15a2b201b868f817"},{"address":"59 RUE JEMMAPES, LILLE","capacity":12,"lat":50.644685,"lon":3.057953,"name":"JEMMAPES","station_id":"7e4005535c883006eef2d8689d79aa5aac057537"},{"address":"100 BOULEVARD VAUBAN, LILLE","capacity":16,"lat":50.63084,"lon":3.04483,"name":"CAMPUS ST RAPHAEL","station_id":"b492e5cf09071b0014a0405f029919f87e52c2bf"},{"address":"2 RUE PIERRE DUPONT, LILLE","capacity":16,"lat":50.63393,"lon":3.061687,"name":"HOPITAL MILITAIRE","station_id":"e262deb6bdf2bd339975697487646055c99a511f"},{"address":"235 Bld PAUL PAINLEVE, LILLE","capacity":16,"lat":50.62479,"lon":3.080467,"name":"AUBERGE DE JEUNESSE","station_id":"6f762a8cbac90a365c64760e0a372537cc4f8aa5"},{"address":"82 Avenue Becquart, LAMBERSART","capacity":12,"lat":50.649644,"lon":3.03812,"name":"BECQUART","station_id":"c7aae24274e7677ab5fcc2a15566c8edb83b8a58"},{"address":"Rue de la Seine, LILLE","capacity":12,"lat":50.612635,"lon":3.059261,"name":"PLACE DE LA GARONNE","station_id":"e76138729b09a25cec4020ec405ca46807ef3d1d"},{"address":"126, RUE VERTE, TOURCOING","capacity":18,"lat":50.724581,"lon":3.166122,"name":"JARDIN BOTANIQUE","station_id":"ff7e662e58ad5918f088afbbea573f7bb2045d94"},{"address":"17 rue Louis Braille, MONS EN BAROEUL","capacity":12,"lat":50.637103,"lon":3.097538,"name":"LOUIS BRAILLE","station_id":"754a931e6efd842be2ae63a3c1ace9eca19b9bbc"},{"address":"AVENUE DE LA CHATELLENIE, VILLENEUVE D'ASCQ","capacity":14,"lat":50.6312847,"lon":3.1350379,"name":"LE STADIUM","station_id":"1114ef036359accb30fd058ae97d42247f66d2d6"},{"address":"FACE AU 49 RUE DE LA CLOCHE, TOURCOING","capacity":12,"lat":50.72271,"lon":3.163794,"name":"CAVELL","station_id":"6a685cf586b8d0fbdb8f0321143bc9dc3ecdb817"},{"address":"RUE JULES GUESDE, VILLENEUVE D'ASCQ","capacity":18,"lat":50.6392268,"lon":3.1308745,"name":"FERME D'EN HAUT","station_id":"d96fff3cd7d9bfdba555b76d7678d094eede9d8a"},{"address":"FACE AU 232, RUE JEAN JAURÈS, CROIX","capacity":24,"lat":50.679123,"lon":3.155906,"name":"MAIRIE DE CROIX","station_id":"7cf386453912ce127255f940ba76ef48c72fe328"},{"address":"BOULEVARD GAMBETTA, TOURCOING","capacity":18,"lat":50.704693,"lon":3.160515,"name":"MERCURE","station_id":"98cc60721a28ff2e8c585c032efa98b8eba3ddff"},{"address":"1, BOULEVARD D'ARMENTIÈRES, ROUBAIX","capacity":18,"lat":50.699436,"lon":3.159658,"name":"BVRD ARMENTIERES","station_id":"8c7217c3b949f1ec25358082c937834c0fe691c8"},{"address":"PLACE DE LA GARE, ROUBAIX","capacity":17,"lat":50.695477,"lon":3.164222,"name":"GARE JEAN LEBAS","station_id":"9e35a95f26c1ce7d9e3e7d0e3aeb24f0e4e7aefe"},{"address":"205-189 rue de l'Epeule, ROUBAIX","capacity":12,"lat":50.6875,"lon":3.1585592,"name":"MAIRIE DE QUARTIER OUEST","station_id":"67252b91a91b6b6caca93440115fbb288ddf8a8f"},{"address":"SECTEUR BVLD EGALITE, TOURCOING","capacity":14,"lat":50.730289,"lon":3.167723,"name":"BVRD DE L EGALITE","station_id":"cf198945dff04e8ab18ea54e0b3e65e9d43ce91a"},{"address":"3, PLACE DU TRICHON, ROUBAIX","capacity":12,"lat":50.6903353,"lon":3.1690075,"name":"PLACE TRICHON","station_id":"38cc959d40da2646aa3b4f052e46d5a455ad9dfc"},{"address":"58 RUE DU MOLINEL, LILLE","capacity":22,"lat":50.63457,"lon":3.068007,"name":"MOLINEL","station_id":"a744d812cf8aec47de5486e312ee2a7c5651ea6a"},{"address":"85, RUE DE GAND, TOURCOING","capacity":12,"lat":50.728798,"lon":3.158835,"name":"RUE SAINT BLAISE","station_id":"6b8ad69733443a32887e54a0a3570c41f1eaf459"},{"address":"FACE AU 69 RUE CARNOT, TOURCOING","capacity":18,"lat":50.71732,"lon":3.162455,"name":"SEBASTOPOL","station_id":"fa014b3a9b3f16ce54c08f441c65aa8951790254"},{"address":"PLACE N. DAME DE LA NATIVITÉ, VILLENEUVE D'ASCQ","capacity":20,"lat":50.61992,"lon":3.14528,"name":"RESIDENCE","station_id":"7253ba4c4b3d48d95085ce12faaee71c8de3018b"},{"address":"RUE DU PORT BD VAUBAN, LILLE","capacity":31,"lat":50.632233,"lon":3.046134,"name":"UNIVERSITE CATHOLIQUE","station_id":"96288bed7761fcf4f78409acd2968b89a1b24640"},{"address":"PONT HYDRAULIQUE, TOURCOING","capacity":16,"lat":50.71473,"lon":3.157369,"name":"CHARLES WATTINNE","station_id":"3d361c51c2d086677a65c39811d036a20792f981"},{"address":"93 RUE LOUISE MICHEL, VILLENEUVE D'ASCQ","capacity":1,"lat":50.633842,"lon":3.127335,"name":"RUE LOUISE MICHEL","station_id":"a788c17800ad51d4af1e7f5645ddc8924392913f"},{"address":"76, BOULEVARD VAN GOGH, VILLENEUVE D'ASCQ","capacity":8,"lat":50.6221,"lon":3.131706,"name":"RUE DES VICTOIRES","station_id":"ce992a2a13f20786f494dc2e7de9be5e0825d790"},{"address":"28 RUE DE L'HOPITAL SAINT ROCH, LILLE","capacity":20,"lat":50.624695,"lon":3.048961,"name":"MAISON FOLIE WAZEMMES","station_id":"b4619d5f34e51da488f9fb19ebb8e88020d78df0"},{"address":"56, RUE PAUL VAILLANT, LAMBERSART","capacity":0,"lat":50.641834,"lon":3.022364,"name":"COLLEGE LAVOISIER","station_id":"ad9bd7761553b70c54bbc7afbab72f50081c06aa"},{"address":"PLACE CHARLES SPRIET, ROUBAIX","capacity":24,"lat":50.67392,"lon":3.18514,"name":"PLACE SPRIET","station_id":"25902c22e64da650ff5a18c50a6129db8a8be496"},{"address":"PLACE LOUISE DE BETTIGNIES, LILLE","capacity":30,"lat":50.64144,"lon":3.064974,"name":"LOUISE DE BETTIGNIES","station_id":"abd202002491bb30a4da32da56fba3df81c6627a"},{"address":"15, RUE PELLART, ROUBAIX","capacity":7,"lat":50.69535,"lon":3.180779,"name":"PELLART","station_id":"a32ac0fe1e550af3c3c7024dd6313560e25da35f"},{"address":"27 BOULEVARD ALPHONSE GAYET, MONS EN BAROEUL","capacity":0,"lat":50.638123,"lon":3.112704,"name":"CONCORDE","station_id":"942067b3925127a3becd18769f54073466520819"},{"address":"17 RUE SOLFERINO, LILLE","capacity":40,"lat":50.634686,"lon":3.048344,"name":"PALAIS RAMEAU","station_id":"9e6a869133647a8607f15021c18c5738065fdef7"},{"address":"69 AVENUE DE VERDUN, MONS EN BAROEUL","capacity":0,"lat":50.638126,"lon":3.10231,"name":"VERDUN","station_id":"5b0977f9bb4c1dac9d6cec71af15773f30ec6f37"},{"address":"12 RUE D'ARTOIS, LILLE","capacity":18,"lat":50.62629,"lon":3.061198,"name":"ARTOIS","station_id":"7de15452082546e19bfc8b7347bfb0cb16a70ec7"},{"address":"38 BIS RUE DU PONT NEUF, LILLE","capacity":20,"lat":50.644264,"lon":3.062935,"name":"PONT NEUF","station_id":"77318b55b366a091f86257719649cddb47e492d7"},{"address":"55, RUE DES FUSILLÉS, VILLENEUVE D'ASCQ","capacity":0,"lat":50.61776,"lon":3.146026,"name":"ROND POINT DE TOURNAI","station_id":"a1edc28929e6b9621de5a955ff0b26a21d167039"},{"address":"17 SQUARE DUTILLEUL, LILLE","capacity":18,"lat":50.63671,"lon":3.054773,"name":"QUAI DU WAULT","station_id":"dd491fe18c23abd77bfc54553d233e0c1fb91bcc"},{"address":"1 BOULEVARD JEAN BAPTISTE LEBAS, LILLE","capacity":24,"lat":50.62824,"lon":3.069233,"name":"BOULEVARD LOUIS XIV","station_id":"dafc950d65ec51317aa65aaba7a12fb5a0cfc396"},{"address":"73 RUE MASSENA, LILLE","capacity":32,"lat":50.63156,"lon":3.054738,"name":"MASSENA","station_id":"8044d0012efe2d813f54262ca021abcd4b28b165"},{"address":"8 PLACE DE GAND, LILLE","capacity":19,"lat":50.64297,"lon":3.067375,"name":"RUE DE GAND","station_id":"2f98f2e1ee73e414cf64bae428caa96ba114be23"},{"address":"4 RUE WAZEMMES, LILLE","capacity":25,"lat":50.62224,"lon":3.067004,"name":"RUE D'ARRAS","station_id":"aead83b9344721c5c99e70a889b61c8d7550545d"},{"address":"7 PLACE DE STRASBOURG, LILLE","capacity":16,"lat":50.633728,"lon":3.055307,"name":"PLACE DE STRASBOURG","station_id":"092c01c8b361c59bcf61f7da50f330ea3a2d0984"},{"address":"15 RUE DE COURTRAI, LILLE","capacity":16,"lat":50.64142,"lon":3.067873,"name":"PLACE AUX BLEUETS","station_id":"1c40a51de3159c393595f182afeeedff35e73d8b"},{"address":"51 RUE DE TOURNAI, LILLE","capacity":16,"lat":50.63424,"lon":3.073991,"name":"CITE ADMINISTRATIVE","station_id":"e7434051dfb6403a5e6fefe6879de5969030f5ae"},{"address":"AVENUE LEON JOUHAUX, LILLE","capacity":40,"lat":50.6379088,"lon":3.0508558,"name":"CHAMP DE MARS","station_id":"675ff6a8888591acc4fd5098af8c96601dd1562c"},{"address":"14 RUE DU BAZINGHIEN, LILLE","capacity":12,"lat":50.62337,"lon":3.037553,"name":"FULTON","station_id":"c9eed130a9344fb7f7ff73e28b8b9330344fff61"},{"address":"112 RUE DU FAUBOURG DE ROUBAIX, LILLE","capacity":20,"lat":50.641238,"lon":3.083175,"name":"FAUBOURG DE ROUBAIX","station_id":"631670fe7d7119ee356002403c25f3a677b1862f"},{"address":"RUE ALPHONSE COLAS, LILLE","capacity":20,"lat":50.64193,"lon":3.061774,"name":"PLACE DU CONCERT","station_id":"2d211ff0d2277ecaf5399a80e66917ec0197ed29"},{"address":"199 RUE LEON GAMBETTA, LILLE","capacity":18,"lat":50.629063,"lon":3.053711,"name":"GAMBETTA UTRECHT","station_id":"5647b7a4c5b34682ef86a7d36291466dcc577952"},{"address":"59 RUE EUGENE JACQUET, LILLE","capacity":21,"lat":50.637337,"lon":3.084894,"name":"EUGENE JACQUET","station_id":"267aecef5841acf354f7b87ddcb4ee03c7638e57"},{"address":"41 RUE DES ARTS, LILLE","capacity":18,"lat":50.639107,"lon":3.065548,"name":"RUE DES ARTS","station_id":"3a2898bf67bc27a220580061867d977f9b17c708"},{"address":"1 PLACE DELIOT, LILLE","capacity":24,"lat":50.61957,"lon":3.068387,"name":"PLACE DELIOT","station_id":"c22dd5cb611f22ba66af305fdc67bd886a98e261"},{"address":"7 RUE MATTEOTI, LILLE","capacity":18,"lat":50.62286,"lon":3.0914,"name":"MONT DE TERRE","station_id":"f626a2f47b4e69345b4b098c5428e64ac0a76eeb"},{"address":"199 RUE COLBERT, LILLE","capacity":20,"lat":50.63413,"lon":3.041209,"name":"PLACE CATINAT","station_id":"17b3a9cf0392d52fc0ef93b3e377492268feff51"},{"address":"FACE AU 52 RUE BARTHELEMY DELESPAUL, LILLE","capacity":18,"lat":50.62418,"lon":3.058902,"name":"BARTHELEMY DELESPAUL","station_id":"04938910f0eeac26baf907ec01989426a13f40dd"},{"address":"91 RUE NATIONALE, LILLE","capacity":30,"lat":50.635082,"lon":3.058015,"name":"RUE NATIONALE","station_id":"2aff4980cf4ff599dd1ac401bac51a68049d10ac"},{"address":"16 - 36 PLACE CORMONTAIGNE, LILLE","capacity":28,"lat":50.62624,"lon":3.039911,"name":"CORMONTAIGNE","station_id":"88a7a80515c7c38acbcad232ad5754c43fb0bdca"},{"address":"BOULEVARD DE BELFORT, LILLE","capacity":20,"lat":50.62073,"lon":3.07895,"name":"PORTE DE VALENCIENNES","station_id":"1af565d49aa9e2da37c517505c8e559e3720d232"},{"address":"RUE DU GENERAL DE GAULLE, LA MADELEINE","capacity":24,"lat":50.654602,"lon":3.073805,"name":"LA MADELEINE MAIRIE","station_id":"ce794d69154f5d81bd7845741332a522f836c743"},{"address":"PLACE FERNIG, LILLE","capacity":26,"lat":50.61843,"lon":3.07241,"name":"PORTE DE DOUAI","station_id":"a97e02aea6ed3d75b597722268f5fe29664d5a66"},{"address":"244 - 254 RUE NATIONALE, LILLE","capacity":24,"lat":50.630836,"lon":3.047778,"name":"NATIONALE RUE DU PORT","station_id":"9f470801d04f09c949a0ee0cacae5de295dc15dc"},{"address":"AVENUE ROBERT SCHUMAN, MONS EN BAROEUL","capacity":16,"lat":50.64218,"lon":3.109699,"name":"MAIRIE DE MONS","station_id":"8b60cc95eaeff78a519a9ea4282b3a09f2c12ccc"},{"address":"70 RUE DE LOOS, LILLE","capacity":18,"lat":50.621128,"lon":3.035483,"name":"PLACE TACQ","station_id":"691d830cf53ede39a4f296bca05caed9ac3e5656"},{"address":"RUE DU FAUBOURG DES POSTES, LILLE","capacity":18,"lat":50.615536,"lon":3.048518,"name":"HOTEL DE POLICE","station_id":"69945a654d057d941d16b96741e80400d0889939"},{"address":"BD NAPOLEON 1ER, MONS EN BAROEUL","capacity":18,"lat":50.64584,"lon":3.112744,"name":"MENDES FRANCE","station_id":"654242cc1ff2a158078e56a0b9c096859bcf4781"},{"address":"ANGLE DE LA RUE AUGUSTE BONTE, LOMME","capacity":16,"lat":50.644855,"lon":3.013238,"name":"PONT SUPERIEUR","station_id":"b2699e52f53d3cd51704f0edeeb71b9aa2830bf9"},{"address":"65 RUE DU FAUBOURG DES POSTES, LILLE","capacity":20,"lat":50.61295,"lon":3.047268,"name":"CIMETIERE DU SUD","station_id":"d3787d31f69c5339cb5b6379ab686389db0e0f96"},{"address":"71, RUE NATIONALE, MARCQ EN BAROEUL","capacity":17,"lat":50.665348,"lon":3.075792,"name":"RUE DE L'EGLISE","station_id":"a16e0b7e1d8c5b61fbc3c53285a1db8f7236b957"},{"address":"2 RUE TRAVERSIÈRE ANGLE ALLÉE TURGOT, VILLENEUVE D'ASCQ","capacity":24,"lat":50.61682,"lon":3.140808,"name":"METRO TRIOLO","station_id":"b5f4f5b5cba129523023dc7f6d8b28b53ca837f7"},{"address":"RUE JACQUARD, LILLE HELLEMMES","capacity":10,"lat":50.63529,"lon":3.115088,"name":"GUINGUETTE","station_id":"689164de54936dc2434b4ba4ee29241fa194da7d"},{"address":"RUE BAUDOUIN IX - MÉTRO PONT DE BOIS, VILLENEUVE D'ASCQ","capacity":30,"lat":50.62435,"lon":3.1283,"name":"PONT DE BOIS","station_id":"67814f670727b3eec23b202cf03efbfe8054fa20"},{"address":"66-188 ALL�E DE LI�GE, LILLE","capacity":40,"lat":50.637726,"lon":3.071892,"name":"EURALILLE","station_id":"a7609bd6facf09bb1f74d6e0448d25c585baef55"},{"address":"299 BOULEVARD DE LEEDS, LILLE","capacity":32,"lat":50.63999,"lon":3.075204,"name":"GARE LILLE EUROPE","station_id":"51b30f64dd453782de0303b45b2ba32e054b4c87"},{"address":"97, RUE JULES GUESDE, VILLENEUVE D'ASCQ","capacity":24,"lat":50.63745,"lon":3.123145,"name":"FLERS MASQUELIER","station_id":"6d7b684cd6758536e55a4774d85c770b4b71ed80"},{"address":"977 RUE EUGENE AVINEE, LOOS","capacity":16,"lat":50.60301,"lon":3.038779,"name":"RECHERCHE","station_id":"730763d6bef6ab80474175c4c468b720d17bc52c"},{"address":"165 RUE ROGER SALENGRO, LILLE HELLEMMES","capacity":24,"lat":50.627243,"lon":3.109266,"name":"MAIRIE D'HELLEMMES","station_id":"000c57bd6b02cc2149d73646b7aaefe19b708c03"},{"address":"RUE DU FAUBOURG DE DOUAI SOUS LE PONT, LILLE","capacity":20,"lat":50.612194,"lon":3.074952,"name":"P.I. DE DOUAI","station_id":"8f7c0de050a715b628b2d84322fbebdd5781192a"},{"address":"AVENUE JEAN JAURES, ROUBAIX","capacity":24,"lat":50.677914,"lon":3.162353,"name":"PARC BARBIEUX","station_id":"6772bdd176a4b89a572450e634dc3eb2b0d4cf59"},{"address":"280 BIS RUE PIERRE LEGRAND, LILLE HELLEMMES","capacity":18,"lat":50.63041,"lon":3.097037,"name":"MARBRERIE","station_id":"39d98ae3c1baadbb103b016ebadd414a3e7427f1"},{"address":"52 Rue sainte-héléne, SAINT ANDRE LEZ LILLE","capacity":12,"lat":50.65722,"lon":3.056147,"name":"SAINTE HÉLÈNE","station_id":"8222c2a2622c64dcaa64d922473b73b0ac5a73f7"},{"address":"BOULEVARD DU GÉNÉRAL DE GAULLE, ROUBAIX","capacity":20,"lat":50.68079,"lon":3.167454,"name":"VICTOR PROVO","station_id":"d3d6406b774b442e8bd3fcd788f8a3e7fcd23fda"},{"address":"BOULEVARD DU PRÉSIDENT HOOVER, LILLE","capacity":17,"lat":50.62651,"lon":3.079211,"name":"BOIS HABITE","station_id":"2ba485e2d91ed18c30146df43023a3bd915af7dd"},{"address":"29-1 Av du Mal de LATTRE de TASSIGNY, MARCQ EN BAROEUL","capacity":12,"lat":50.672415,"lon":3.0924237,"name":"MARCQ MAIRIE","station_id":"1587ec1150c1ee96690178ebd76d211df9599c02"},{"address":"FACE AU 49 BIS BD DU GÉNÉRAL DE GAULLE, ROUBAIX","capacity":15,"lat":50.684757,"lon":3.171974,"name":"JEAN MOULIN","station_id":"3b2013307e86a84459a6f4af389b50cdc24e32bc"},{"address":"185, AVENUE DE LA RÉPUBLIQUE, LA MADELEINE","capacity":16,"lat":50.64891,"lon":3.078336,"name":"BOTANIQUE","station_id":"a9664d51426b988539db0aebb52bc28e6ef3bd1e"},{"address":"45, RUE LOUIS DUPIRE, ROUBAIX","capacity":18,"lat":50.69106,"lon":3.1902585,"name":"CONDITION PUBLIQUE","station_id":"7c8bbefa74ff5fab3373e84b6f53c27d954694d7"},{"address":"78-84, BOULEVARD DU GÉNÉRAL LECLERC, ROUBAIX","capacity":30,"lat":50.69138,"lon":3.17966,"name":"EUROTELEPORT","station_id":"875f51af365ed670f6076ede0d85e01b90ee8a47"},{"address":"17 RUE SAINT SAUVEUR, LILLE","capacity":20,"lat":50.6318,"lon":3.071392,"name":"MAIRIE DE LILLE","station_id":"99bb9e7ff1bf7d05d70705faa1b74b6ba27e7fb2"},{"address":"13, PLACE DE LA FOSSE AUX CHÊNES, ROUBAIX","capacity":14,"lat":50.699734,"lon":3.174347,"name":"FOSSE AUX CHENES","station_id":"c33a096e15c13aea4e75e9fd22d81014fc28f5cf"},{"address":"PLACE DE LA FRATERNITÉ, ROUBAIX","capacity":16,"lat":50.681797,"lon":3.194122,"name":"FRATERNITE","station_id":"deb7936607ee2624fcd6910f42a52135fd8f4605"},{"address":"FACE 171 RUE NATIONALE, LILLE","capacity":19,"lat":50.63268,"lon":3.052483,"name":"SOLFERINO NATIONALE","station_id":"a9b8fef8388361fbe16eb85f10f8af0e6a07f2a5"},{"address":"FACE AU 1 PLACE DE LA VICTOIRE, TOURCOING","capacity":12,"lat":50.718204,"lon":3.15749,"name":"VICTOIRE","station_id":"6a215664b45dc015f78dd914f456f70bb3ec5e6e"},{"address":"181, BOULEVARD DE STRASBOURG, ROUBAIX","capacity":11,"lat":50.70076,"lon":3.18407,"name":"DE LA VIGNE","station_id":"8d3780e9b81fee822f483cf1477b79394e9c85e1"},{"address":"FACE AU 102 ALLEE DU RIEZ, LA MADELEINE","capacity":24,"lat":50.65547,"lon":3.064989,"name":"POMPIDOU","station_id":"d5c1c6c9492c234e99eb016bc1ac69c0b7b7aa0f"},{"address":"SECTEUR BVRD DE L'EGALITÉ, TOURCOING","capacity":15,"lat":50.73418,"lon":3.1681724,"name":"ROUGET DE L ISLE","station_id":"fd95183c851bbe3a8986df4ba3b039c8bb8b91e0"},{"address":"22, RUE LÉON SALEMBIER, TOURCOING","capacity":12,"lat":50.71922,"lon":3.163396,"name":"POSTE","station_id":"99527c8e45a852024f6b2b590e196e8a7ebf7ff4"},{"address":"3 RUE AUGUSTE ANGELLIER, LILLE","capacity":26,"lat":50.628544,"lon":3.065015,"name":"ANGELLIER","station_id":"b6d89a5b55d9faeb1d8c379d7356b078bec912e1"},{"address":"45, PLACE CHARLES ET ALBERT ROUSSEL, TOURCOING","capacity":20,"lat":50.721308,"lon":3.158104,"name":"PLACE ROUSSEL","station_id":"39cdd737adc68c0c058c751b18bd7a183e6994e2"},{"address":"RUE DE LILLE, TOURCOING","capacity":16,"lat":50.72263,"lon":3.150377,"name":"RUE DES POUTRAINS","station_id":"819802fcbcdad14d181d8df1b7b0a9968ed119f8"},{"address":"AVENUE OSCAR LAMBRET, LILLE","capacity":20,"lat":50.61352,"lon":3.03677,"name":"CHU - CENTRE OSCAR LAMBRET","station_id":"fc3d1e8685e32ecb738349d7f877a6714e4418d8"},{"address":"59-55 RUE DE BLANCHEMAILLE, ROUBAIX","capacity":16,"lat":50.6967934,"lon":3.1684926,"name":"BLANCHEMAILLE","station_id":"37bc26c8aa6181bad4eeb8d516e4aaeb0ab457f7"},{"address":"3 PLACE DE LA REPUBLIQUE, CROIX","capacity":16,"lat":50.67441,"lon":3.14721,"name":"CROIX CENTRE","station_id":"fb973a0632289f9f7be5c9ab061b6fcb0a15715c"},{"address":"Avenue Eugène Avinée, LOOS","capacity":16,"lat":50.604525,"lon":3.031224,"name":"FACULTÉ DE MÉDECINE","station_id":"7098a86d5036272cba027411be4fb9947107b8a2"},{"address":"4 rue du Professeur Langevin, LILLE","capacity":1,"lat":50.6151322,"lon":3.0863797,"name":"TEST CYKLEO LILLE","station_id":"5e9502d163d22d2f137c4b62ea28eadfe12889ae"},{"address":"58 RUE CHANZY, LILLE HELLEMMES","capacity":12,"lat":50.62504,"lon":3.1008,"name":"CHANZY","station_id":"eab5f05c67fb7a42aaeea1acfab773c249227b32"},{"address":"107, BOULEVARD DE FOURMIES, ROUBAIX","capacity":12,"lat":50.67544,"lon":3.181998,"name":"DE FOURMIES","station_id":"23541241564ce63fad8efb09916fbd8b203e1d2d"},{"address":"203 RUE CARNOT, WATTRELOS","capacity":0,"lat":50.697895,"lon":3.206297,"name":"REPUBLIQUE","station_id":"7c594dfe60b91a2a1c903aa87abbbf64a2c8b8d4"},{"address":"ANGLE PLACE RIHOUR, LILLE","capacity":32,"lat":50.63589,"lon":3.062471,"name":"RIHOUR","station_id":"deb7d40bb70ad7ba12728ffbe5e46f37a12db723"},{"address":"192, AVENUE DE LINNÉ, ROUBAIX","capacity":12,"lat":50.676884,"lon":3.187817,"name":"LINNE","station_id":"596486810f8af6f07b38b6ff236f58b93fce1218"},{"address":"9 RUE MARCEAU, LILLE","capacity":0,"lat":50.63665,"lon":3.091106,"name":"RUE DE LA GAITE","station_id":"1e5dd1a24ada92ff840ac18043c8adf48f3af693"},{"address":"38-4 RUE DE STALINGRAD, WATTRELOS","capacity":1,"lat":50.69626,"lon":3.209156,"name":"STALINGRAD","station_id":"755f9a084e35a5a71a5c841cdeb1472ea1acaae3"},{"address":"FACE AU 1, CONTOUR  SAINT MARTIN, ROUBAIX","capacity":30,"lat":50.69184,"lon":3.173925,"name":"ROUBAIX MAIRIE","station_id":"a6eef904573ad3206edb4684ad4556fffce7aeb2"},{"address":"2-10, D660, WATTRELOS","capacity":1,"lat":50.701187,"lon":3.215011,"name":"WATTRELOS PLACE","station_id":"e0ea482fe364ca46a1a975cefd6f9a9217acd045"},{"address":"2 RUE INKERMAN, LILLE","capacity":24,"lat":50.630943,"lon":3.060299,"name":"REPUBLIQUE BEAUX ARTS","station_id":"08feaa8d3fc91960503876bba22cfa8e5524ae30"},{"address":"RUE DES PIATS, TOURCOING","capacity":18,"lat":50.722343,"lon":3.170847,"name":"LE CORBUSIER","station_id":"4ee65b8a7d3083799b5079da6797deb60da157f5"},{"address":"PONT DU PETIT PARADIS, LILLE","capacity":24,"lat":50.6449,"lon":3.050645,"name":"ESPLANADE","station_id":"a7d96746205e7ab71316b1504e6a895b60c1ef7f"},{"address":"PLACE DES BUISSES, LILLE","capacity":40,"lat":50.637078,"lon":3.070774,"name":"FLANDRES EURALILLE","station_id":"03bd9f7320deca7e70c171d1a1a14224c446698b"},{"address":"2-14 BOULEVARD DE L'ÉGALITÉ, TOURCOING","capacity":12,"lat":50.727453,"lon":3.166828,"name":"F ROOSEVELT","station_id":"3fe43f2d55ac2b2fccfc10b99bd39d8119760cfe"},{"address":"41 RUE DU MARCHE, LILLE","capacity":16,"lat":50.62614,"lon":3.051729,"name":"METRO GAMBETTA","station_id":"da63c8df52d6533024dfc319ae339f8708eb6256"},{"address":"1 RUE D'HAUBOURDIN, LILLE","capacity":18,"lat":50.62429,"lon":3.045321,"name":"PLACE CASQUETTE","station_id":"136da7988d7af63a5ddd83200ad5691f8b0c1a7f"},{"address":"SECTEUR UNION, TOURCOING","capacity":12,"lat":50.7134,"lon":3.165011,"name":"RUE DE ROUBAIX","station_id":"b7331cc228ef5d4baee5671fca4fd94571963f48"},{"address":"30 BOULEVARD DU MARECHAL VAILLANT, LILLE","capacity":23,"lat":50.629246,"lon":3.075218,"name":"LILLE GRAND PALAIS","station_id":"e2d9f92d75985f49cf223ca7eeccbfb2c96f645b"},{"address":"298 RUE LEON GAMBETTA, LILLE","capacity":23,"lat":50.627674,"lon":3.050173,"name":"MARCHE DE WAZEMMES","station_id":"95abc0edc9a428a40fa0e2c50f2cdc79b3436211"},{"address":"MEL RUE DU BALLON, LILLE","capacity":0,"lat":50.641926,"lon":3.075992,"name":"METROPOLE EUROPEENNE DE LILLE","station_id":"c81ea20d2ee3aa53d46f7bc45d731fd0de8d5d72"},{"address":"BOULEVARD EMILE DUBUISSON, LILLE","capacity":30,"lat":50.632965,"lon":3.076437,"name":"ZENITH","station_id":"472bccd287b300a87c414698bce77d2f5b7a939c"},{"address":"681 AVENUE DE LA REPUBLIQUE, LILLE","capacity":16,"lat":50.656487,"lon":3.088004,"name":"BUISSON","station_id":"6d540b30f23f2b2d9d30729218991d2f432db89b"},{"address":"BOULEVARD DE LYON, ROUBAIX","capacity":16,"lat":50.67869,"lon":3.172558,"name":"HOPITAL VICTOR PROVO","station_id":"a0599e711b657664e5fe5c2b7c8bda0254842a2f"},{"address":"260 AVENUE DE LA REPUBLIQUE, LA MADELEINE","capacity":24,"lat":50.651638,"lon":3.081625,"name":"SAINT MAUR","station_id":"7d59e538ad770fce77d8dd767daf4b1f4fcaeab4"},{"address":"1 PLACE BARTHELEMY DOREZ, LILLE","capacity":38,"lat":50.61856,"lon":3.049251,"name":"PORTE DES POSTES","station_id":"717c72150e2715465078e36b61cdd7ce376e6904"},{"address":"FACE AU 204 RUE DE LA BASSEE, LILLE","capacity":0,"lat":50.623466,"lon":3.030667,"name":"SQUARE DU PORTUGAL","station_id":"151f4f6bc405b8007bac417ce54b0aeba07f720f"},{"address":"16, RUE DU BUISSON, LILLE","capacity":18,"lat":50.651337,"lon":3.08945,"name":"AVENUE DE MORMAL","station_id":"c02a26ee7273464c8be9fa938edb9c93b67e23a6"},{"address":"114 RUE DE DOUAI, LILLE","capacity":20,"lat":50.621185,"lon":3.072363,"name":"TREVISE","station_id":"0a81b540aa22bf951696b1195c96fff1f3b06395"},{"address":"RUE CHAMBORD, VILLENEUVE D'ASCQ","capacity":0,"lat":50.62972,"lon":3.133873,"name":"RUE CHAMBORD","station_id":"30dbe8287bbc3774c77c455b9fd901b1a8fc5f92"},{"address":"FACE AU 152 CHEMIN MARGUERITOIS, RONCHIN","capacity":13,"lat":50.60642,"lon":3.072209,"name":"CH. DES MARGUERITOIS","station_id":"2627ac168be199728ab9ff9f6d9098d4ccd18182"},{"address":"211 RUE DU FAUBOURG DE ROUBAIX, LILLE","capacity":24,"lat":50.642315,"lon":3.087979,"name":"ST MAURICE PELLEVOISIN","station_id":"c59b622dc4e59ebcc3556aa101f9510055d76bee"},{"address":"84 RUE DE TREVISE, LILLE","capacity":1,"lat":50.622223,"lon":3.077127,"name":"BELFORT","station_id":"57e3f6dfb550022b892dba19b4215ce6fad943d2"},{"address":"FACE AU 125 RUE ROGER SALENGRO, LA MADELEINE","capacity":16,"lat":50.65532,"lon":3.060615,"name":"CHAUFFERIE","station_id":"e431e6647b60967a362a9b0cf6eab2c09d460d0c"},{"address":"RUE DE BORDEAUX, LILLE","capacity":23,"lat":50.63579,"lon":3.033977,"name":"MARX DORMOY","station_id":"12de53e63a0ae7550b07af704b8568bd9a18de34"},{"address":"10 RUE DE PAS, LILLE","capacity":32,"lat":50.63734,"lon":3.060977,"name":"NOUVEAU SIECLE","station_id":"82bfe9a537b6f67b814b617d7949b409081facda"},{"address":"FACE AU 92 RUE DU GENERAL LECLERC, SAINT ANDRE LEZ LILLE","capacity":24,"lat":50.661602,"lon":3.050322,"name":"ST ANDRE MAIRIE","station_id":"1177bf5c146c8485729a01ddc55a6c9c7a9ce8a8"},{"address":"ALLEE VICTOR BASCH, LA MADELEINE","capacity":18,"lat":50.64543,"lon":3.075116,"name":"ROMARIN","station_id":"810c292189422e556b7205c7d0aafd247a21eef1"},{"address":"93 RUE ROYALE, LILLE","capacity":14,"lat":50.6428,"lon":3.055932,"name":"VOLTAIRE","station_id":"403196846449e9112ed35de44205f1c8480fb271"},{"address":"2 Rue du Maréchal Foch, LOOS","capacity":14,"lat":50.616763,"lon":3.023032,"name":"RUE DE LONDRES","station_id":"81ac577c2588434580dfd709229834363636ba74"},{"address":"250 RUE GENERAL DE GAULLE, LA MADELEINE","capacity":17,"lat":50.65937,"lon":3.074057,"name":"LA MADELEINE GARE","station_id":"f0fa6058ad11ed23fb7d9898c546d1d376cda19a"},{"address":"PLACE DE LA GARE, LILLE","capacity":20,"lat":50.636399,"lon":3.069354,"name":"GARE LILLE FLANDRES","station_id":"6ffe00ce76302c0ca3447f0b0d4dde4110e80afc"},{"address":"42, RUE DUPUY DE LOMÉ, ROUBAIX","capacity":18,"lat":50.682053,"lon":3.182205,"name":"DANIELLE LESAFFRE","station_id":"e6af89d50cd7691cdb1bf337cff385797ab6d60d"},{"address":"AVENUE DES ACACIAS, MONS EN BAROEUL","capacity":24,"lat":50.6423,"lon":3.099291,"name":"MONS SARTS","station_id":"e40272412f3491d28fbb34a190623fecff8caa97"},{"address":"51 RUE DES POSTES, LILLE","capacity":18,"lat":50.62633,"lon":3.05659,"name":"BRULE MAISON","station_id":"98f9f2879dad585b4abc2ef8cad96ad79ef160fc"},{"address":"26, RUE DE L'EPEULE, ROUBAIX","capacity":14,"lat":50.691406,"lon":3.162704,"name":"CENTRE NAUTIQUE","station_id":"fb858171f5cd3eeb29944e6fcd4bc385ce5c7a92"},{"address":"44 RUE LACORDAIRE, MONS EN BAROEUL","capacity":16,"lat":50.639828,"lon":3.106677,"name":"LACORDAIRE","station_id":"2df0c4a4a1bc2234dc00b557560b46c57c2dc0b5"},{"address":"2 RUE CAMBRAI, LILLE","capacity":32,"lat":50.62482,"lon":3.068689,"name":"JB LEBAS","station_id":"f1d6a8c72a33b55c05e2a52d0a8c0cbfcac7cd6d"},{"address":"72, RUE DE LILLE, ROUBAIX","capacity":16,"lat":50.68645,"lon":3.170006,"name":"CHARLES DE GAULLE","station_id":"aa927271e434116e2c1e5f2b5715b1cd29311b2c"},{"address":"5 RUE LAURENT DE LAVOISIER, MONS EN BAROEUL","capacity":12,"lat":50.636105,"lon":3.106438,"name":"LAVOISIER","station_id":"2a365c9b822f2c9da0dfb979af22124829f2d3ba"},{"address":"93 RUE RACINE, LILLE","capacity":20,"lat":50.62338,"lon":3.051565,"name":"METRO WAZEMMES","station_id":"5bc1c5091428bb56801455343b0cd58fca8d4179"},{"address":"3, RUE D'AVELGHEM, ROUBAIX","capacity":12,"lat":50.694714,"lon":3.192643,"name":"CHAPTAL","station_id":"0bc89911bfaa0077dc96cd0c1d15917fd90de6ff"},{"address":"9, AVENUE HENRI GRUSON, LAMBERSART","capacity":21,"lat":50.641617,"lon":3.031375,"name":"HIPPODROME","station_id":"03d20133740320674f5c87b05a578dfae047c874"},{"address":"214 BOULEVARD VICTOR HUGO, LILLE","capacity":18,"lat":50.620304,"lon":3.055471,"name":"BD VICTOR HUGO","station_id":"2bfc2b1ceb6b8acd4faf42b59bf8d638d5f2ed2b"},{"address":"RUE DE GAND (FACE AU LYCÉE), TOURCOING","capacity":18,"lat":50.72551,"lon":3.156554,"name":"COLBERT","station_id":"73ada252237dbf0ba33e625bc7f24f74b6e54bad"},{"address":"2 RUE MARCEL HÉNAUX, LILLE","capacity":16,"lat":50.614052,"lon":3.062195,"name":"FAUBOURG D'ARRAS","station_id":"4c82424545ef1eb11a3aad1889c4cda98ef587e2"},{"address":"BOULEVARD DU PRESIDENT HOOVER, LILLE","capacity":31,"lat":50.629738,"lon":3.078224,"name":"HOTEL DE REGION","station_id":"00143ff4dd038d23160a1dd5d132490c10e587eb"},{"address":"SECTEUR RUE CONDORCET, TOURCOING","capacity":12,"lat":50.72498,"lon":3.150884,"name":"AVENUE MILLET","station_id":"5dc2d8a0a92bab18a6cb6f969bcba1c66aadf1ff"},{"address":"FACE AU 255 RUE DE LILLE, LAMBERSART","capacity":16,"lat":50.64989,"lon":3.042045,"name":"CANON D'OR","station_id":"b17aaa7cacc1e6ecf7c3dcf4cc18fb83282eb296"},{"address":"122 BOULEVARD MONTEBELLO, LILLE","capacity":24,"lat":50.621952,"lon":3.04534,"name":"MONTEBELLO","station_id":"988367f71ebdf58b5ec5e78b2ff172b3e6c09484"},{"address":"135, CHAUSSÉE GALILÉE, TOURCOING","capacity":12,"lat":50.710735,"lon":3.159881,"name":"CARLIERS","station_id":"59d50dcff559d65ced7e7013245e5c615b49010b"},{"address":"FACE AU 102 AVENUE HENRI DELECAUX, LAMBERSART","capacity":20,"lat":50.644943,"lon":3.036932,"name":"DELECAUT","station_id":"5b60a1fde009c57f03463052a19d2be44fe491f1"},{"address":"BOULEVARD VALMY, VILLENEUVE D'ASCQ","capacity":19,"lat":50.61606,"lon":3.132006,"name":"CENTRE COMMERCIAL V2","station_id":"01b23a8da5d4fb4098b808fff322595791348a27"},{"address":"PHALEMPINS, TOURCOING","capacity":16,"lat":50.732277,"lon":3.157656,"name":"PHALEMPINS","station_id":"6360e8085dd53824879678e74b8b08ad607e85b9"},{"address":"15, BOULEVARD DU GÉNÉRAL DE GAULLE, ROUBAIX","capacity":24,"lat":50.688015,"lon":3.174815,"name":"ALFRED MONGY","station_id":"950b51f942c94508d64156d240b34425f32536c8"},{"address":"RUE DE LILLE, VILLENEUVE D'ASCQ","capacity":16,"lat":50.62577,"lon":3.144714,"name":"RUE DE LILLE","station_id":"30e0278bbe0fc04b17f5cca308226d1ae7195c3d"},{"address":"HÔTEL DE VILLE, LOMME","capacity":18,"lat":50.63899,"lon":3.01154,"name":"LOMME MAIRIE","station_id":"a9f49c2bcaedb20ba7f8e8a7396843646e0b8b60"},{"address":"1, RUE LESUEUR, ROUBAIX","capacity":12,"lat":50.6795,"lon":3.179257,"name":"SAINT JEAN-BAPTISTE","station_id":"c385280764ccaa793b0e82c01bf0da1677cb30d0"},{"address":"68 RUE JEAN SANS PEUR, LILLE","capacity":14,"lat":50.632367,"lon":3.05816,"name":"JEAN SANS PEUR","station_id":"dec5d5d647cbf6109edd89007f17c94748aab27d"},{"address":"89, BOULEVARD D'ARMENTIÈRES, ROUBAIX","capacity":16,"lat":50.7004,"lon":3.161378,"name":"ALSACE","station_id":"8c3cbd6ee2b8a21ec2f8b3b27404827ab8aedfd4"},{"address":"104-122 Bld VICTOR HUGO, LILLE","capacity":12,"lat":50.62195,"lon":3.06038,"name":"GANTOIS","station_id":"788fb404ffb8978f726e8057c1b874e2cb37b941"},{"address":"FACE AU 42 RUE DES ANGES, TOURCOING","capacity":12,"lat":50.719803,"lon":3.156338,"name":"RUE DES ANGES","station_id":"71d8140b550547e95ae303fc49c9e8df93531b26"},{"address":"BOULEVARD EUGENE DUTHOIT, LILLE","capacity":28,"lat":50.607664,"lon":3.038892,"name":"CHU - EURASANTÉ","station_id":"847567cf3207562d18eab321819e55172ded7940"},{"address":"1, RUE DE L'ALMA, TOURCOING","capacity":17,"lat":50.72075,"lon":3.152659,"name":"THEATRE TOURCOING","station_id":"a4c6b0b81ad268f5dd2bbba599ace14517b9383d"},{"address":"81 RUE DU MARECHAL FOCH, LOOS","capacity":18,"lat":50.615246,"lon":3.018435,"name":"LA FILEUSE","station_id":"64c1d0bb3bd15d9864ba6c1a25a2fb935e1c5547"},{"address":"FACE AU 40 RUE JOURDAN, TOURCOING","capacity":12,"lat":50.728798,"lon":3.154051,"name":"RUE DE MENIN","station_id":"659466c6cda7509acd13129928f8cb470a962804"},{"address":"19 ALLEE DU Dr HAVET, LAMBERSART","capacity":14,"lat":50.652107,"lon":3.029324,"name":"SQUARE JEAN MONNET","station_id":"abd16e8632a06c3440181987811eb1bd553884e2"},{"address":"301, RUE DU PONT DE NEUVILLE, TOURCOING","capacity":16,"lat":50.73682,"lon":3.1712308,"name":"PONT DE NEUVILLE","station_id":"be15bea4d2bb1419c0d8d7a9e0beca4279fd72fc"},{"address":"18 BIS RUE DU PARC, LA MADELEINE","capacity":12,"lat":50.651107,"lon":3.0678,"name":"RUE DU PARC","station_id":"f01a62636f804e79af2051dc523ef4766fa169d1"},{"address":"11 AVENUE VERHAEREN, LILLE","capacity":22,"lat":50.61893,"lon":3.032539,"name":"CHASSEURS DE DRIANT","station_id":"1563ce813e69b524778fe3be2cedcab8dc4336db"},{"address":"272, RUE VERTE, CROIX","capacity":30,"lat":50.673943,"lon":3.163443,"name":"EDHEC","station_id":"e76d2d5f6c4c67630c24bccf7e7503200839e3bb"},{"address":"3 RUE SAINT ANDRE, LILLE","capacity":16,"lat":50.646225,"lon":3.053499,"name":"MAGASIN","station_id":"d1effd5dc2e4855742b6e9deebdfacb987854fbf"},{"address":"AVENUE ALFRED MOTTE, ROUBAIX","capacity":30,"lat":50.674995,"lon":3.195737,"name":"USINE","station_id":"e13a680fba659893fd0817c29163a25a48be1a5f"},{"address":"48, AVENUE GUSTAVE DELORY, ROUBAIX","capacity":18,"lat":50.674164,"lon":3.174519,"name":"GUSTAVE DELORY","station_id":"5e4efa6caf6b4fa7689447ccc2cebe9117acd1c2"},{"address":"93, RUE DE LANNOY, ROUBAIX","capacity":18,"lat":50.68859,"lon":3.182028,"name":"LANNOY","station_id":"76ae66fb0efdf2767bd2ae0499d69ae002b01bce"},{"address":"105, AVENUE JEAN-BAPTISTE LEBAS, ROUBAIX","capacity":14,"lat":50.693768,"lon":3.167666,"name":"MUSEE ART ET INDUSTRIE","station_id":"83cdd0aed6aa42c977792937e0dc121b96b3773f"},{"address":"RUE INKERMAN, ROUBAIX","capacity":16,"lat":50.683987,"lon":3.16327,"name":"EPEULE MONTESQUIEU","station_id":"903f6b502400662cd185af08a28ff6deaeb01bd7"},{"address":"158, BOULEVARD GAMBETTA, ROUBAIX","capacity":18,"lat":50.692368,"lon":3.185092,"name":"NATIONS UNIES","station_id":"6b2794be5a33235fdc3ee653d7c6d916bb20f916"},{"address":"PLACE PIERRE SEMARD, TOURCOING","capacity":18,"lat":50.716843,"lon":3.167834,"name":"TOURCOING GARE","station_id":"8039317a718eaa6fd3af7b08cbbddb014055ba8a"},{"address":"6 BIS, RUE NATIONALE, TOURCOING","capacity":22,"lat":50.72389,"lon":3.160344,"name":"TOURCOING MAIRIE","station_id":"2d494663fe92f1879d9282e94c0d8cdad0616662"}]},"last_updated":1655738872,"ttl":60,"version":"2.0"}